[
  {
    "name": "LT 28",
    "address": "LT 28, Lower Kent Ridge Road",
    "coords": {
      "latitude": 1.29891,
      "longitude": 103.77535
    },
    "image_url": "https://fastly.4sqi.net/img/general/600x600/paT5EQFEi96vwCUKF8OqAoVuWTBTp28ScajMxmCnCss.jpg",
    "color": "navy"
  },
  {
    "name": "LT 29",
    "address": "LT 29,Lower Kent Ridge Road",
    "coords": {
      "latitude": 1.29878,
      "longitude": 103.77574
    },
    "image_url": "https://fastly.4sqi.net/img/general/600x600/308951_YRWrCijeBAuqBtEupvlwXhNa5CT9ZqXRFbfnTamLzw0.jpg",
    "color": "navy"
  },
  {
    "name": "LT 27",
    "address": "21 Lower Kent Ridge Rd, Singapore 119077",
    "coords": {
      "latitude": 1.29879,
      "longitude": 103.77567
    },
    "image_url": "https://firebasestorage.googleapis.com/v0/b/nusvigate-1fffe.appspot.com/o/MAPIMAGES%2FLecture%20Theatre%2FLT%2027.jpg?alt=media&token=204b5e7a-4709-4f2f-aac6-db36b690755a",
    "color": "navy"
  },
  {
    "name": "LT 21",
    "address": "8 Science Drive 2, Singapore 117547",
    "coords": {
      "latitude": 1.29591,
      "longitude": 103.77902
    },
    "image_url": "https://us.123rf.com/450wm/pavelstasevich/pavelstasevich1811/pavelstasevich181101027/112815900-stock-vector-no-image-available-icon-flat-vector.jpg?ver=6",
    "color": "navy"
  },
  {
    "name": "LT 1",
    "address": "5 Engineering Drive 2, Singapore 117579",
    "coords": {
      "latitude": 1.29963,
      "longitude": 103.77157
    },
    "image_url": "https://us.123rf.com/450wm/pavelstasevich/pavelstasevich1811/pavelstasevich181101027/112815900-stock-vector-no-image-available-icon-flat-vector.jpg?ver=6",
    "color": "navy"
  },
  {
    "name": "LT 7",
    "address": "9 Engineering Drive 1, National University of Singapore, Singapore 117575",
    "coords": {
      "latitude": 1.30034,
      "longitude": 103.770599
    },
    "image_url": "https://live.staticflickr.com/2526/4189170521_668aea3291_z.jpg",
    "color": "navy"
  },
  {
    "name": "LT 4",
    "address": "10 Kent Ridge Crescent, 119260",
    "coords": {
      "latitude": 1.2992,
      "longitude": 103.77369
    },
    "image_url": "https://us.123rf.com/450wm/pavelstasevich/pavelstasevich1811/pavelstasevich181101027/112815900-stock-vector-no-image-available-icon-flat-vector.jpg?ver=6",
    "color": "navy"
  },
  {
    "name": "LT 31",
    "address": " S16, Faculty of Science, Lower Kent Ridge Rd",
    "coords": {
      "latitude": 1.29722,
      "longitude": 103.77987
    },
    "image_url": "https://firebasestorage.googleapis.com/v0/b/nusvigate-1fffe.appspot.com/o/MAPIMAGES%2FLecture%20Theatre%2FLT%2031.jpg?alt=media&token=bf7469ae-17f4-4120-82a1-0ec11a8c5c7f",
    "color": "navy"
  },
  {
    "name": "LT 12",
    "address": "Kent Ridge Drive, 119246",
    "coords": {
      "latitude": 1.295,
      "longitude": 103.77138889
    },
    "image_url": "https://firebasestorage.googleapis.com/v0/b/nusvigate-1fffe.appspot.com/o/MAPIMAGES%2FLecture%20Theatre%2FLT%2012.jpg?alt=media&token=4ad23b2e-5f59-4da3-a3d2-4893769d6f9e",
    "color": "navy"
  },
  {
    "name": "LT 14",
    "address": "11 Computing Drive, 117416",
    "coords": {
      "latitude": 1.29583333,
      "longitude": 103.77333333
    },
    "image_url": "https://firebasestorage.googleapis.com/v0/b/nusvigate-1fffe.appspot.com/o/MAPIMAGES%2FLecture%20Theatre%2FLT%2014.jpg?alt=media&token=319b5a24-4cf8-43ee-be54-2d5e35161946",
    "color": "navy"
  },
  {
    "name": "LT 9",
    "address": "11 Arts Link, Singapore 117573",
    "coords": {
      "latitude": 1.29472,
      "longitude": 103.77241
    },
    "image_url": "https://firebasestorage.googleapis.com/v0/b/nusvigate-1fffe.appspot.com/o/MAPIMAGES%2FLecture%20Theatre%2FLT%209.jpg?alt=media&token=0074e746-e8ab-4753-a01f-800b47192e94",
    "color": "navy"
  },
  {
    "name": "LT 10",
    "address": "11 Arts Link, Singapore 117573",
    "coords": {
      "latitude": 1.295,
      "longitude": 103.77194444
    },
    "image_url": "https://firebasestorage.googleapis.com/v0/b/nusvigate-1fffe.appspot.com/o/MAPIMAGES%2FLecture%20Theatre%2FLT10.jpg?alt=media&token=9c4294e3-0e36-4776-a318-15f2524bc24f",
    "color": "navy"
  },
  {
    "name": " LT 11",
    "address": "Faculty of Social Arts and Science",
    "coords": {
      "latitude": 1.29583333,
      "longitude": 103.77083333
    },
    "image_url": "https://firebasestorage.googleapis.com/v0/b/nusvigate-1fffe.appspot.com/o/MAPIMAGES%2FLecture%20Theatre%2FLT11.jpg?alt=media&token=246da452-6b46-432b-a5b2-3fdf202a38f6",
    "color": "navy"
  },
  {
    "name": "LT 15",
    "address": " 11 Computing Drive, 117416",
    "coords": {
      "latitude": 1.29583333,
      "longitude": 103.77333333
    },
    "image_url": "https://firebasestorage.googleapis.com/v0/b/nusvigate-1fffe.appspot.com/o/MAPIMAGES%2FLecture%20Theatre%2FLT%2015.jpg?alt=media&token=37e53e50-12b2-47b4-a20a-87351b16fd9f",
    "color": "navy"
  },
  {
    "name": "LT 16",
    "address": "NUS Business",
    "coords": {
      "latitude": 1.29388889,
      "longitude": 103.77444444
    },
    "image_url": "https://firebasestorage.googleapis.com/v0/b/nusvigate-1fffe.appspot.com/o/MAPIMAGES%2FLecture%20Theatre%2FLT16.jpg?alt=media&token=de510e16-4a88-4e6f-9d4d-d5337a7004bc",
    "color": "navy"
  },
  {
    "name": "LT 17",
    "address": "NUS Business",
    "coords": {
      "latitude": 1.29388889,
      "longitude": 103.77416667
    },
    "image_url": "https://firebasestorage.googleapis.com/v0/b/nusvigate-1fffe.appspot.com/o/MAPIMAGES%2FLecture%20Theatre%2FLT17.jpg?alt=media&token=4d79f735-da15-478c-9b5d-c9313ec16dee",
    "color": "navy"
  },
  {
    "name": "LT 19",
    "address": "Computing Drive, National University Of Singapore, 119077",
    "coords": {
      "latitude": 1.29388889,
      "longitude": 103.77444444
    },
    "image_url": "https://firebasestorage.googleapis.com/v0/b/nusvigate-1fffe.appspot.com/o/MAPIMAGES%2FLecture%20Theatre%2FLT19.jpg?alt=media&token=5447e83f-b092-4b01-b831-80b5fa0199c7",
    "color": "navy"
  },
  {
    "name": "LT 50",
    "address": "2 College Ave West, Singapore 138607",
    "coords": {
      "latitude": 1.305,
      "longitude": 103.77305556
    },
    "image_url": "https://firebasestorage.googleapis.com/v0/b/nusvigate-1fffe.appspot.com/o/MAPIMAGES%2FLecture%20Theatre%2FLT%2050.jpg?alt=media&token=0a2982bb-0415-4ae8-80ff-3dc87c0d9f43",
    "color": "navy"
  },
  {
    "name": "LT 52",
    "address": "2 College Ave West, Singapore 138607",
    "coords": {
      "latitude": 1.30472222,
      "longitude": 103.77305556
    },
    "image_url": "https://firebasestorage.googleapis.com/v0/b/nusvigate-1fffe.appspot.com/o/MAPIMAGES%2FLecture%20Theatre%2FLT%2052.jpg?alt=media&token=a0baea8c-14a1-4691-ab3e-124613d00325",
    "color": "navy"
  },
  {
    "name": "LT 53",
    "address": "2 College Ave West, Singapore 138607",
    "coords": {
      "latitude": 1.30472222,
      "longitude": 103.77305556
    },
    "image_url": "https://firebasestorage.googleapis.com/v0/b/nusvigate-1fffe.appspot.com/o/MAPIMAGES%2FLecture%20Theatre%2FLT%2053.jpg?alt=media&token=f8e46ac8-00aa-4707-830e-f789f0f8503e",
    "color": "navy"
  }
]
