[
  {
    "name": "Science Library",
    "address": "10 Science Drive 2, Blk S6, Singapore 117548",
    "coords": {
      "latitude": 1.2968,
      "longitude": 103.77919
    },
    "image_url": "https://libportal.nus.edu.sg/media/media/SC_facade.jpg",
    "color": "plum"
  }, {
    "name": "NUS Central Library",
    "address": "12 Kent Ridge Cres, Singapore 119275",
    "coords": {
      "latitude": 1.29675,
      "longitude": 103.773148
    },
    "image_url": "https://firebasestorage.googleapis.com/v0/b/nusvigate-1fffe.appspot.com/o/MAPIMAGES%2FStudy%20%26%20Discussion%20venues%2FCLB.jpg?alt=media&token=901aa7de-7188-4082-94ce-606cd5ec300e",
    "color": "plum"
  }, {
    "name": "COM - Discussion Room 12",
    "address": "21 Lower Kent Ridge Rd, Singapore 119077",
    "coords": {
      "latitude": 1.29472222,
      "longitude": 103.77384
    },
    "image_url": "https://firebasestorage.googleapis.com/v0/b/nusvigate-1fffe.appspot.com/o/MAPIMAGES%2FStudy%20%26%20Discussion%20venues%2FDR%2012.jpg?alt=media&token=4a0e63d5-2650-49d6-a4c2-a9bc71238d25",
    "color": "plum"
  }, {
    "name": "Student Lounge 1(C4-02-10)",
    "address": "21 Lower Kent Ridge Rd, Singapore 119077",
    "coords": {
      "latitude": 1.29638889,
      "longitude": 103.78055556
    },
    "image_url": "https://firebasestorage.googleapis.com/v0/b/nusvigate-1fffe.appspot.com/o/MAPIMAGES%2FStudy%20%26%20Discussion%20venues%2FStudent%20Lounge%201(C4-02-10).jpg?alt=media&token=f15599c0-7a1d-4b9b-9196-a61a8a25d625",
    "color": "plum"
  }, {
    "name": "Student Lounge 1(C4-02-11)",
    "address": "21 Lower Kent Ridge Rd, Singapore 119077",
    "coords": {
      "latitude": 1.29611111,
      "longitude": 1.29611111
    },
    "image_url": "https://firebasestorage.googleapis.com/v0/b/nusvigate-1fffe.appspot.com/o/MAPIMAGES%2FStudy%20%26%20Discussion%20venues%2FStudent%20Lounge%202(C4-02-11).jpg?alt=media&token=443c3d46-5e30-4788-9b59-4b34f815c445",
    "color": "plum"
  }
]