[
  {
    "name": "Ridge View Residential College",
    "address": "25 Lower Kent Ridge Rd, Singapore 119081",
    "coords": {
      "latitude": 1.29623,
      "longitude": 103.783279
    },
    "image_url": "https://uci.nus.edu.sg/ceu/wp-content/uploads/sites/4/2020/05/Ridge-View-Residential-College-e1588585393926-1024x445.jpg",
    "color": "blue"
  },
  {
    "name": "College of Alice & Peter Tan (CAPT)",
    "address": "8 College Ave E, #B1-50, Singapore 138615",
    "coords": {
      "latitude": 1.30756,
      "longitude": 103.77323
    },
    "image_url": "https://firebasestorage.googleapis.com/v0/b/nusvigate-1fffe.appspot.com/o/MAPIMAGES%2Faccommodations%2FCAPT.jpg?alt=media&token=dcba5bc5-dcdd-4d06-97c7-854d563dfbf1",
    "color": "blue"
  },
  {
    "name": "Cinnamon College",
    "address": "18 College Ave E, Cinnamon West Learn Lobe, Singapore 138593",
    "coords": {
      "latitude": 1.30681,
      "longitude": 103.773018
    },
    "image_url": "https://firebasestorage.googleapis.com/v0/b/nusvigate-1fffe.appspot.com/o/MAPIMAGES%2Faccommodations%2FCinnamon%20college.jpg?alt=media&token=c325a894-37ce-4e26-9812-88572b1b8789",
    "color": "blue"
  },
  {
    "name": "Residential College 4",
    "address": "6 College Avenue East, #01-01, University Town, National University of Singapore, 138614",
    "coords": {
      "latitude": 1.30816,
      "longitude": 103.77336
    },
    "image_url": "https://firebasestorage.googleapis.com/v0/b/nusvigate-1fffe.appspot.com/o/MAPIMAGES%2Faccommodations%2FRC%204.jpg?alt=media&token=17dc5df3-9a8e-42a7-8ba8-0f7fc77affa3",
    "color": "blue"
  },
  {
    "name": "Tembusu College",
    "address": "28 College Ave E, #B1-01, Singapore 138598",
    "coords": {
      "latitude": 1.30591,
      "longitude": 103.77381
    },
    "image_url": "https://firebasestorage.googleapis.com/v0/b/nusvigate-1fffe.appspot.com/o/MAPIMAGES%2Faccommodations%2FTembusu%20College.jpg?alt=media&token=7382817a-b1b5-42f8-824d-8c4cc26f809d",
    "color": "blue"
  },
  {
    "name": "Eusoff Hall",
    "address": "10 Kent Ridge Drive, National University of Singapore, Singapore 119242",
    "coords": {
      "latitude": 1.29274,
      "longitude": 103.77134
    },
    "image_url": "https://firebasestorage.googleapis.com/v0/b/nusvigate-1fffe.appspot.com/o/MAPIMAGES%2Faccommodations%2FeusoffHall.jpeg?alt=media&token=871a12bb-3c48-4ea7-bccf-640ec112429c",
    "color": "blue"
  },
  {
    "name": "King Edward VII Hall",
    "address": "1A Kent Ridge Rd, Singapore 119224",
    "coords": {
      "latitude": 1.29284,
      "longitude": 103.78053
    },
    "image_url": "https://firebasestorage.googleapis.com/v0/b/nusvigate-1fffe.appspot.com/o/MAPIMAGES%2Faccommodations%2Fke7.jpg?alt=media&token=194da0ae-e32c-4563-9a94-7dc1e83198c5",
    "color": "blue"
  },
  {
    "name": "Kent Ridge Hall",
    "address": "10 Heng Mui Keng Terrace, Singapore 119617",
    "coords": {
      "latitude": 1.2918,
      "longitude": 103.77442
    },
    "image_url": "https://firebasestorage.googleapis.com/v0/b/nusvigate-1fffe.appspot.com/o/MAPIMAGES%2Faccommodations%2FkentRidgeHall.jpg?alt=media&token=bddb214c-ad7f-45b7-98fa-4caa9b338e0f",
    "color": "blue"
  },
  {
    "name": "Prince George's Park House",
    "address": "Block 20, #01-23, 35 Prince George's Park, Singapore 118429",
    "coords": {
      "latitude": 1.2908,
      "longitude": 103.78026
    },
    "image_url": "https://firebasestorage.googleapis.com/v0/b/nusvigate-1fffe.appspot.com/o/MAPIMAGES%2Faccommodations%2FpgpH.jpg?alt=media&token=089a9076-8c02-417e-b3fd-78909059fbc1",
    "color": "blue"
  },
  {
    "name": "Prince George's Park Residences",
    "address": "Singapore Prince George's Park",
    "coords": {
      "latitude": 1.29242,
      "longitude": 103.77969
    },
    "image_url": "https://firebasestorage.googleapis.com/v0/b/nusvigate-1fffe.appspot.com/o/MAPIMAGES%2Faccommodations%2FpgpR.jpg?alt=media&token=bba49040-5b67-437a-8e4f-f92c5fb3a653",
    "color": "blue"
  },
  {
    "name": "Raffles Hall",
    "address": "19 Kent Ridge Crescent, Singapore 119278",
    "coords": {
      "latitude": 1.29797,
      "longitude": 103.77319
    },
    "image_url": "https://firebasestorage.googleapis.com/v0/b/nusvigate-1fffe.appspot.com/o/MAPIMAGES%2Faccommodations%2FrafflesHall.jpg?alt=media&token=21acc1be-ab97-4d0d-a0a5-bc2017f80ecd",
    "color": "blue"
  },
  {
    "name": "Sheares Hall",
    "address": "20 Heng Mui Keng Terrace, Singapore 119618",
    "coords": {
      "latitude": 1.29066,
      "longitude": 103.77731
    },
    "image_url": "https://firebasestorage.googleapis.com/v0/b/nusvigate-1fffe.appspot.com/o/MAPIMAGES%2Faccommodations%2FshearesHall.jpg?alt=media&token=86242ab9-5ac5-478c-a6f8-47dc84ab9273",
    "color": "blue"
  },
  {
    "name": "Temasek Hall",
    "address": "12 Kent Ridge Dr, Singapore 119243",
    "coords": {
      "latitude": 1.29354,
      "longitude": 103.77007
    },
    "image_url": "https://firebasestorage.googleapis.com/v0/b/nusvigate-1fffe.appspot.com/o/MAPIMAGES%2Faccommodations%2FtemasekHall.jpg?alt=media&token=41f9a3c6-f59b-4661-803f-39d57cbffd09",
    "color": "blue"
  }
]
